{
  "totalPages": 1,
  "currentPage": 1,
  "queryTime": "0.012",
  "from": 1,
  "products": [
    {
      "shippingWeight": "78",
      "printOnly": false,
      "description": null,
      "url": "http:\/\/www.bestbuy.com\/site\/olspage.jsp?skuId=9234198&type=product&id=1218068137530&cmp=RMX&ky=1uYnAnk1pohGgQVwEClo8PHv4SN4C5MeL",
      "inStoreAvailability": true,
      "sku": 9234198,
      "cjAffiliateAddToCartUrl": null,
      "search": null,
      "addToCartUrl": "http:\/\/www.bestbuy.com\/site\/olspage.jsp?id=pcmcat152200050035&type=category&cmp=RMX&ky=1uYnAnk1pohGgQVwEClo8PHv4SN4C5MeL&qvsids=9234198",
      "affiliateAddToCartUrl": null,
      "new": false,
      "accessoriesImage": null,
      "weight": "60.4 lbs. with stand (48.9 lbs. without)",
      "salePrice": 3099.99,
      "dollarSavings": 600.0,
      "inStoreAvailabilityUpdateDate": "2009-03-05T10:15:01",
      "largeFrontImage": "http:\/\/images.bestbuy.com\/BestBuy_US\/images\/products\/9234\/9234198_sa.jpg",
      "freeShipping": true,
      "navigability": true,
      "height": "34-4\/7\" with stand (32\" without)",
      "color": null,
      "remoteControlImage": null,
      "stores": [
        {
          "fullPostalCode": "76205",
          "city": "Denton",
          "longName": "Best Buy - Denton",
          "name": "Denton",
          "region": "TX",
          "country": "US",
          "lng": -97.10067,
          "postalCode": "76205",
          "phone": "940-384-9581",
          "hours": "Mon: 10-9; Tue: 10-9; Wed: 10-9; Thurs: 10-9; Fri: 10-10; Sat: 10-10; Sun: 11-8",
          "lat": 33.192524,
          "address": "1800 S Loop 288, Ste 102 Bldg 1 ",
          "distance": 9.79,
          "storeId": 827
        },
        {
          "fullPostalCode": "75034",
          "city": "Frisco",
          "longName": "Best Buy - Frisco",
          "name": "Frisco",
          "region": "TX",
          "country": "US",
          "lng": -96.83974,
          "postalCode": "75034",
          "phone": "214-872-2079",
          "hours": "Mon: 10-9; Tue: 10-9; Wed: 10-9; Thurs: 10-9; Fri: 10-10; Sat: 10-10; Sun: 10-8",
          "lat": 33.17477,
          "address": "5299 Eldorado Pkwy",
          "distance": 10.79,
          "storeId": 1773
        },
        {
          "fullPostalCode": "75034",
          "city": "Frisco",
          "longName": "Best Buy - Frisco",
          "name": "Frisco",
          "region": "TX",
          "country": "US",
          "lng": -96.807182,
          "postalCode": "75034",
          "phone": "972-712-3939",
          "hours": "Mon: 10-9; Tue: 10-9; Wed: 10-9; Thurs: 10-9; Fri: 10-10; Sat: 10-10; Sun: 11-8",
          "lat": 33.108253,
          "address": "3333 Preston Rd #200",
          "distance": 15.49,
          "storeId": 180
        },
        {
          "fullPostalCode": "75056",
          "city": "Lewisville",
          "longName": "Best Buy - The Colony",
          "name": "The Colony",
          "region": "TX",
          "country": "US",
          "lng": -96.88915,
          "postalCode": "75056",
          "phone": "214-469-2979",
          "hours": "Mon: 10-9; Tue: 10-9; Wed: 10-9; Thurs: 10-9; Fri: 10-10; Sat: 10-10; Sun: 11-8",
          "lat": 33.06501,
          "address": "4800 State Hwy 121 ",
          "distance": 15.93,
          "storeId": 1796
        },
        {
          "fullPostalCode": "75022",
          "city": "Flower Mound",
          "longName": "Best Buy - Flower Mound",
          "name": "Flower Mound",
          "region": "TX",
          "country": "US",
          "lng": -97.080109,
          "postalCode": "75022",
          "phone": "972-874-0965",
          "hours": "Mon: 10-9; Tue: 10-9; Wed: 10-9; Thurs: 10-9; Fri: 10-9; Sat: 9-9; Sun: 10-8",
          "lat": 33.06926,
          "address": "6060 Long Prairie Rd",
          "distance": 16.15,
          "storeId": 1038
        },
        {
          "fullPostalCode": "75067",
          "city": "Lewisville",
          "longName": "Best Buy - Lewisville",
          "name": "Lewisville",
          "region": "TX",
          "country": "US",
          "lng": -96.963219,
          "postalCode": "75067",
          "phone": "214-488-8624",
          "hours": "Mon: 10-9; Tue: 10-9; Wed: 10-9; Thurs: 10-9; Fri: 10-10; Sat: 10-10; Sun: 10-8",
          "lat": 32.999397,
          "address": "2601 S Stemmons Fwy",
          "distance": 19.73,
          "storeId": 258
        },
        {
          "fullPostalCode": "75002",
          "city": "Allen",
          "longName": "Best Buy - Allen",
          "name": "Allen",
          "region": "TX",
          "country": "US",
          "lng": -96.65549,
          "postalCode": "75002",
          "phone": "469-675-8924",
          "hours": "Mon: 10-9; Tue: 10-9; Wed: 10-9; Thurs: 10-9; Fri: 10-10; Sat: 10-10; Sun: 10-8",
          "lat": 33.1267,
          "address": "190 E Stacy Rd Bldg 3000",
          "distance": 21.33,
          "storeId": 1780
        },
        {
          "fullPostalCode": "75074",
          "city": "Plano",
          "longName": "Best Buy - Plano ",
          "name": "Plano ",
          "region": "TX",
          "country": "US",
          "lng": -96.702805,
          "postalCode": "75074",
          "phone": "972-578-8000",
          "hours": "Mon: 10-9:00; Tue: 10-9:00; Wed: 10-9:00; Thurs: 10-9:00; Fri: 10-10; Sat: 10-10; Sun: 10-8",
          "lat": 33.035957,
          "address": "2800 N Central Expy",
          "distance": 23.21,
          "storeId": 202
        },
        {
          "fullPostalCode": "75063",
          "city": "Irving",
          "longName": "Best Buy - North Irving",
          "name": "North Irving",
          "region": "TX",
          "country": "US",
          "lng": -96.972069,
          "postalCode": "75063",
          "phone": "972-910-0330",
          "hours": "Mon: 10-9; Tue: 10-9; Wed: 10-9; Thurs: 10-9; Fri: 10-10; Sat: 10-10; Sun: 11-8",
          "lat": 32.920174,
          "address": "1900 Market Place Blvd ",
          "distance": 25.2,
          "storeId": 1032
        },
        {
          "fullPostalCode": "76051",
          "city": "Grapevine",
          "longName": "Best Buy - Grapevine",
          "name": "Grapevine",
          "region": "TX",
          "country": "US",
          "lng": -97.095222,
          "postalCode": "76051",
          "phone": "817-442-9912",
          "hours": "Mon: 10-9; Tue: 10-9; Wed: 10-9; Thurs: 10-9; Fri: 10-10; Sat: 9-10; Sun: 11-8",
          "lat": 32.928673,
          "address": "1515 W State Hwy 114",
          "distance": 25.63,
          "storeId": 148
        },
        {
          "fullPostalCode": "75244",
          "city": "Farmers Branch",
          "longName": "Best Buy - Midway \/ LBJ",
          "name": "Midway \/ LBJ",
          "region": "TX",
          "country": "US",
          "lng": -96.835213,
          "postalCode": "75244",
          "phone": "972-239-9980",
          "hours": "Mon: 10-9; Tue: 10-9; Wed: 10-9; Thurs: 10-9; Fri: 10-10; Sat: 10-10; Sun: 11-8",
          "lat": 32.92749,
          "address": "4255 Lyndon B Johnson Fwy Midway\/LBJ Shopping Center",
          "distance": 25.94,
          "storeId": 256
        },
        {
          "fullPostalCode": "75231",
          "city": "Dallas",
          "longName": "Best Buy - Park Lane",
          "name": "Park Lane",
          "region": "TX",
          "country": "US",
          "lng": -96.768257,
          "postalCode": "75231",
          "phone": "214-696-2089",
          "hours": "Mon: 9:30-9; Tue: 9:30-9; Wed: 9:30-9; Thurs: 9:30-9; Fri: 9:30-10; Sat: 9:30-10; Sun: 10-8",
          "lat": 32.876068,
          "address": "9378 N Central Expy",
          "distance": 30.62,
          "storeId": 58
        },
        {
          "fullPostalCode": "75062",
          "city": "Irving",
          "longName": "Best Buy - Irving",
          "name": "Irving",
          "region": "TX",
          "country": "US",
          "lng": -97.004326,
          "postalCode": "75062",
          "phone": "972-258-0001",
          "hours": "Mon: 10-9; Tue: 10-9; Wed: 10-9; Thurs: 10-9; Fri: 10-10; Sat: 10-10; Sun: 11-8",
          "lat": 32.838085,
          "address": "3915 W Airport Fwy, Irving Market Center",
          "distance": 30.94,
          "storeId": 205
        },
        {
          "fullPostalCode": "75040",
          "city": "Garland",
          "longName": "Best Buy - Garland",
          "name": "Garland",
          "region": "TX",
          "country": "US",
          "lng": -96.613983,
          "postalCode": "75040",
          "phone": "972-530-6818",
          "hours": "Mon: 10-9; Tue: 10-9; Wed: 10-9; Thurs: 10-9; Fri: 10-10; Sat: 10-10; Sun: 10-8",
          "lat": 32.945286,
          "address": "3171 N George Bush Fwy",
          "distance": 31.32,
          "storeId": 1412
        },
        {
          "fullPostalCode": "76177",
          "city": "Fort Worth",
          "longName": "Best Buy - Heritage Trace Parkway",
          "name": "Heritage Trace Parkway",
          "region": "TX ",
          "country": "US",
          "lng": -97.31484,
          "postalCode": "76177",
          "phone": "817-750-5330",
          "hours": "Mon: 10-9; Tue: 10-9; Wed: 10-9; Thurs: 10-9; Fri: 10-10; Sat: 10-10; Sun: 10-8",
          "lat": 32.90786,
          "address": "9581 Sage Meadow Trail",
          "distance": 32.76,
          "storeId": 1494
        },
        {
          "fullPostalCode": "76053",
          "city": "Hurst",
          "longName": "Best Buy - No. Richland Hills",
          "name": "No. Richland Hills",
          "region": "TX",
          "country": "US",
          "lng": -97.202721,
          "postalCode": "76053",
          "phone": "817-595-4737",
          "hours": "Mon: 10-9; Tue: 10-9; Wed: 10-9; Thurs: 10-9; Fri: 10-10; Sat: 10-10; Sun: 11-8",
          "lat": 32.827339,
          "address": "869 Ne Mall Blvd",
          "distance": 34.33,
          "storeId": 55
        },
        {
          "fullPostalCode": "75211",
          "city": "Dallas",
          "longName": "Best Buy - Virginia Center Commons",
          "name": "Virginia Center Commons",
          "region": "TX",
          "country": "US",
          "lng": -96.898529,
          "postalCode": "75211",
          "phone": "214-333-7587",
          "hours": "Mon: 10-9; Tue: 10-9; Wed: 10-9; Thurs: 10-9; Fri: 10-10; Sat: 10-10; Sun: 11-7",
          "lat": 32.765137,
          "address": "4414 Dfw Tpke",
          "distance": 36.18,
          "storeId": 1033
        },
        {
          "fullPostalCode": "76011",
          "city": "Arlington",
          "longName": "Best Buy - North Arlington  ",
          "name": "North Arlington  ",
          "region": "TX ",
          "country": "US",
          "lng": -97.100388,
          "postalCode": "76011",
          "phone": "817-795-1401",
          "hours": "Mon: 10-9; Tue: 10-9; Wed: 10-9; Thurs: 10-9; Fri: 10-9; Sat: 10-9; Sun: 11-7",
          "lat": 32.75848,
          "address": "200 Lincoln Sq",
          "distance": 37.14,
          "storeId": 794
        },
        {
          "fullPostalCode": "75150",
          "city": "Mesquite",
          "longName": "Best Buy - Mesquite",
          "name": "Mesquite",
          "region": "TX",
          "country": "US",
          "lng": -96.630699,
          "postalCode": "75150",
          "phone": "972-681-3180",
          "hours": "Mon: 10-9; Tue: 10-9; Wed: 10-9; Thurs: 10-9; Fri: 10-10; Sat: 10-10; Sun: 10-8",
          "lat": 32.804329,
          "address": "2701 N Mesquite Dr",
          "distance": 38.67,
          "storeId": 54
        },
        {
          "fullPostalCode": "75087",
          "city": "Rockwall",
          "longName": "Best Buy - Rockwall ",
          "name": "Rockwall ",
          "region": "TX",
          "country": "US",
          "lng": -96.452347,
          "postalCode": "75087",
          "phone": "972-722-1486",
          "hours": "Mon: 10-9; Tue: 10-9; Wed: 10-9; Thurs: 10-9; Fri: 10-10; Sat: 10-10; Sun: 11-7",
          "lat": 32.903969,
          "address": "995 E I-30",
          "distance": 40.0,
          "storeId": 1417
        },
        {
          "fullPostalCode": "76135",
          "city": "Fort Worth",
          "longName": "Best Buy - Fort Worth",
          "name": "Fort Worth",
          "region": "TX ",
          "country": "US",
          "lng": -97.429245,
          "postalCode": "76135",
          "phone": "817-238-6025",
          "hours": "Mon: 10-9; Tue: 10-9; Wed: 10-9; Thurs: 10-9; Fri: 10-10; Sat: 10-10; Sun: 11-7",
          "lat": 32.804398,
          "address": "5944 Quebec St",
          "distance": 42.49,
          "storeId": 1027
        },
        {
          "fullPostalCode": "76116",
          "city": "Fort Worth ",
          "longName": "Best Buy - Ridgmar",
          "name": "Ridgmar",
          "region": "TX ",
          "country": "US",
          "lng": -97.433205,
          "postalCode": "76116",
          "phone": "817-731-9983",
          "hours": "Mon: 10-9; Tue: 10-9; Wed: 10-9; Thurs: 10-9; Fri: 10-9; Sat: 10-9; Sun: 11-7",
          "lat": 32.736568,
          "address": "6750 West Fwy",
          "distance": 46.39,
          "storeId": 234
        },
        {
          "fullPostalCode": "76132",
          "city": "Fort Worth ",
          "longName": "Best Buy - Hulen",
          "name": "Hulen",
          "region": "TX",
          "country": "US",
          "lng": -97.409218,
          "postalCode": "76132",
          "phone": "817-570-1770",
          "hours": "Mon: 10-9; Tue: 10-9; Wed: 10-9; Thurs: 10-9; Fri: 10-10; Sat: 10-10; Sun: 10-8",
          "lat": 32.685406,
          "address": "5604 SW Loop 820",
          "distance": 48.58,
          "storeId": 176
        },
        {
          "fullPostalCode": "76063",
          "city": "Mansfield",
          "longName": "Best Buy - Mansfield",
          "name": "Mansfield",
          "region": "TX ",
          "country": "US",
          "lng": -97.150681,
          "postalCode": "76063",
          "phone": "817-473-0794",
          "hours": "Mon: 10-9; Tue: 10-9; Wed: 10-9; Thurs: 10-9; Fri: 10-9; Sat: 10-9; Sun: 11-7",
          "lat": 32.598038,
          "address": "2041 Highway 287 N",
          "distance": 48.6,
          "storeId": 1035
        },
        {
          "fullPostalCode": "76028",
          "city": "Burleson",
          "longName": "Best Buy - South Fort Worth",
          "name": "South Fort Worth",
          "region": "TX ",
          "country": "US",
          "lng": -97.320786,
          "postalCode": "76028",
          "phone": "817-295-0732",
          "hours": "Mon: 10-9; Tue: 10-9; Wed: 10-9; Thurs: 10-9; Fri: 10-10; Sat: 10-10; Sun: 10-7",
          "lat": 32.570015,
          "address": "12820 S I-35 Fwy",
          "distance": 53.41,
          "storeId": 665
        },
        {
          "fullPostalCode": "76087",
          "city": "Weatherford ",
          "longName": "Best Buy - Weatherford",
          "name": "Weatherford",
          "region": "TX",
          "country": "US",
          "lng": -97.783157,
          "postalCode": "76087",
          "phone": "817-599-9102",
          "hours": "Mon: 9-9; Tue: 9-9; Wed: 9-9; Thurs: 9-9; Fri: 9-9; Sat: 10-9; Sun: 11-7",
          "lat": 32.727791,
          "address": "138 I-20 E Ste 120",
          "distance": 60.8,
          "storeId": 1024
        }
      ],
      "largeImage": "http:\/\/images.bestbuy.com\/BestBuy_US\/images\/products\/9234\/9234198_sb.jpg",
      "format": null,
      "salesRankLongTerm": 2073,
      "inStoreAvailabilityText": "Store Pickup: Available at most stores",
      "regularPrice": 3699.99,
      "salesRankShortTerm": 263,
      "nationalFeatured": true,
      "manufacturer": "Samsung",
      "onlineAvailabilityText": "Delivery Most Areas",
      "salesRankMediumTerm": 535,
      "department": "VIDEO",
      "energyGuideImage": null,
      "customerReviewCount": 36,
      "mobileUrl": "http:\/\/m.bestbuy.com\/r\/1218068137530\/9234198\/",
      "name": "Samsung 55\" Class \/ 1080p \/ 120Hz \/ LCD-LED HDTV",
      "image": "http:\/\/images.bestbuy.com\/BestBuy_US\/images\/products\/9234\/9234198_sc.jpg",
      "shippingCost": 0.0,
      "shortDescription": "ENERGY STAR Qualified 4 HDMI inputs; gray Touch of Color bezel; 16:9 aspect ratio",
      "specialOrder": false,
      "customerReviewAverage": 4.6,
      "warrantyParts": "1 year",
      "depth": "12\" with stand (1-1\/5\" without)",
      "topViewImage": null,
      "upc": "036725229815",
      "class": "FLAT PANEL TV",
      "departmentId": 2,
      "rightViewImage": null,
      "active": true,
      "classId": 276,
      "subclass": "55\" + LCD",
      "cjAffiliateUrl": null,
      "priceUpdateDate": "2009-07-26T00:15:47",
      "alternateViewsImage": "http:\/\/images.bestbuy.com\/BestBuy_US\/images\/products\/9234\/9234198cv1a.jpg",
      "warrantyLabor": "1 year",
      "source": "bestbuy",
      "releaseDate": null,
      "modelNumber": "UN55B7100",
      "longDescription": "Enjoy brilliant images on this HDTV that features a 4 ms response time for eliminating blurring and streaking during fast-action scenes. The Touch of Color design accents the bezel with a stylish gray tone for a stylish look.\n\nHave questions about this product?Ask Mr. Samsung, fellow shoppers and Best Buy staff. Share your answers.",
      "onlineAvailabilityUpdateDate": "2009-03-05T10:15:01",
      "startDate": "2009-02-27",
      "subclassId": 6011,
      "angleImage": "http:\/\/images.bestbuy.com\/BestBuy_US\/images\/products\/9234\/9234198_ra.jpg",
      "thumbnailImage": "http:\/\/images.bestbuy.com\/BestBuy_US\/images\/products\/9234\/9234198_s.gif",
      "leftViewImage": null,
      "type": "HardGood",
      "productId": 1218068137530,
      "orderable": "Available",
      "categoryPath": [
        {
          "name": "Best Buy",
          "id": "cat00000"
        },
        {
          "name": "TV & Video",
          "id": "abcat0100000"
        },
        {
          "name": "Televisions",
          "id": "abcat0101000"
        },
        {
          "name": "Flat-Panel TVs",
          "id": "abcat0101001"
        }
      ],
      "mediumImage": "http:\/\/images.bestbuy.com\/BestBuy_US\/images\/products\/9234\/9234198fp.gif",
      "onSale": true,
      "itemUpdateDate": "2009-07-28T20:09:05",
      "affiliateUrl": null,
      "activeUpdateDate": "2009-03-05T10:15:01",
      "width": "52\"",
      "spin360Url": "http:\/\/images.bestbuy.com\/BestBuy_US\/en_US\/images\/global\/360\/360pop.html?sku=9234198",
      "backViewImage": "http:\/\/images.bestbuy.com\/BestBuy_US\/images\/products\/9234\/9234198_ba.jpg",
      "onlineAvailability": false
    },
    {
      "shippingWeight": "81.6",
      "printOnly": false,
      "description": null,
      "url": "http:\/\/www.bestbuy.com\/site\/olspage.jsp?skuId=9300605&type=product&id=1218079754022&cmp=RMX&ky=1uYnAnk1pohGgQVwEClo8PHv4SN4C5MeL",
      "inStoreAvailability": true,
      "sku": 9300605,
      "cjAffiliateAddToCartUrl": null,
      "search": null,
      "addToCartUrl": "http:\/\/www.bestbuy.com\/site\/olspage.jsp?id=pcmcat152200050035&type=category&cmp=RMX&ky=1uYnAnk1pohGgQVwEClo8PHv4SN4C5MeL&qvsids=9300605",
      "affiliateAddToCartUrl": null,
      "new": false,
      "accessoriesImage": null,
      "weight": "63.9 lbs. with stand (51.1 lbs. without)",
      "salePrice": 3399.98,
      "dollarSavings": 600.0,
      "inStoreAvailabilityUpdateDate": "2009-04-28T12:14:27",
      "largeFrontImage": "http:\/\/images.bestbuy.com\/BestBuy_US\/images\/products\/9300\/9300605_sa.jpg",
      "freeShipping": true,
      "navigability": true,
      "height": "33-4\/9\" with stand (31-1\/3\" without)",
      "color": null,
      "remoteControlImage": null,
      "stores": [
        {
          "fullPostalCode": "75074",
          "city": "Plano",
          "longName": "Best Buy - Plano ",
          "name": "Plano ",
          "region": "TX",
          "country": "US",
          "lng": -96.702805,
          "postalCode": "75074",
          "phone": "972-578-8000",
          "hours": "Mon: 10-9:00; Tue: 10-9:00; Wed: 10-9:00; Thurs: 10-9:00; Fri: 10-10; Sat: 10-10; Sun: 10-8",
          "lat": 33.035957,
          "address": "2800 N Central Expy",
          "distance": 23.21,
          "storeId": 202
        },
        {
          "fullPostalCode": "75244",
          "city": "Farmers Branch",
          "longName": "Best Buy - Midway \/ LBJ",
          "name": "Midway \/ LBJ",
          "region": "TX",
          "country": "US",
          "lng": -96.835213,
          "postalCode": "75244",
          "phone": "972-239-9980",
          "hours": "Mon: 10-9; Tue: 10-9; Wed: 10-9; Thurs: 10-9; Fri: 10-10; Sat: 10-10; Sun: 11-8",
          "lat": 32.92749,
          "address": "4255 Lyndon B Johnson Fwy Midway\/LBJ Shopping Center",
          "distance": 25.94,
          "storeId": 256
        }
      ],
      "largeImage": "http:\/\/images.bestbuy.com\/BestBuy_US\/images\/products\/9300\/9300605_sb.jpg",
      "format": null,
      "salesRankLongTerm": 2194,
      "inStoreAvailabilityText": "Store Pickup: Available at most stores",
      "regularPrice": 3999.98,
      "salesRankShortTerm": 242,
      "nationalFeatured": false,
      "manufacturer": "Samsung",
      "onlineAvailabilityText": "Delivery Most Areas",
      "salesRankMediumTerm": 456,
      "department": "MAGNOLIA HOME THEATR",
      "energyGuideImage": null,
      "customerReviewCount": 18,
      "mobileUrl": "http:\/\/m.bestbuy.com\/r\/1218079754022\/9300605\/",
      "name": "Samsung 55\" Class \/ 1080p \/ 240Hz \/ LCD-LED HDTV",
      "image": "http:\/\/images.bestbuy.com\/BestBuy_US\/images\/products\/9300\/9300605_sc.jpg",
      "shippingCost": 0.0,
      "shortDescription": "ENERGY STAR Qualified4 HDMI inputs; 2 USB ports; black\/red Touch of Color bezel; 16:9 aspect ratio",
      "specialOrder": false,
      "customerReviewAverage": 4.7,
      "warrantyParts": "1 year limited",
      "depth": "12-1\/8\" with stand (1-1\/4\" without)",
      "topViewImage": null,
      "upc": "036725229938",
      "class": "MHT FLAT PANEL TV",
      "departmentId": 14,
      "rightViewImage": null,
      "active": true,
      "classId": 306,
      "subclass": "MHT 55\" + LCD",
      "cjAffiliateUrl": null,
      "priceUpdateDate": "2009-07-18T00:14:04",
      "alternateViewsImage": "http:\/\/images.bestbuy.com\/BestBuy_US\/images\/products\/9300\/9300605cv1a.jpg",
      "warrantyLabor": "1 year limited",
      "source": "bestbuy",
      "releaseDate": null,
      "modelNumber": "UN55B8000",
      "longDescription": "Learn more\nabout Magnolia \n\t\t\t\n\t\t\n\t\t\n\t\t\t\n\t\t\t\tPremium\nInstallation \n\t\t\t\n\t\t\n\t\n\t\n\t\t&nbsp;\n\t\n\n\n\t \n\t\t\n\t \n\t \n\t\t\n\t\t\t\n\t\t\t\n\t\tBring your favorite movies, TV shows and sporting events to life on this LCD-LED HDTV that features an Auto Motion Plus 240Hz screen refresh rate to greatly reduce blur during fact action sequences and Wide Color Enhancer Pro technology to optimize color hues.\n\n\n\t\t\t\n\t\t\t\t\t\t\n\t\t\t\n\t\t\n\t\n\t\n\t\t\n\t \n\n\nHave questions about this product?Ask Mr. Samsung, fellow shoppers and Best Buy staff. Share your answers.",
      "onlineAvailabilityUpdateDate": "2009-04-28T12:14:27",
      "startDate": "2009-04-27",
      "subclassId": 3984,
      "angleImage": "http:\/\/images.bestbuy.com\/BestBuy_US\/images\/products\/9300\/9300605_ra.jpg",
      "thumbnailImage": "http:\/\/images.bestbuy.com\/BestBuy_US\/images\/products\/9300\/9300605_s.gif",
      "leftViewImage": "http:\/\/images.bestbuy.com\/BestBuy_US\/images\/products\/9300\/9300605le.jpg",
      "type": "HardGood",
      "productId": 1218079754022,
      "orderable": "Available",
      "categoryPath": [
        {
          "name": "Best Buy",
          "id": "cat00000"
        },
        {
          "name": "TV & Video",
          "id": "abcat0100000"
        },
        {
          "name": "Televisions",
          "id": "abcat0101000"
        },
        {
          "name": "Flat-Panel TVs",
          "id": "abcat0101001"
        }
      ],
      "mediumImage": "http:\/\/images.bestbuy.com\/BestBuy_US\/images\/products\/9300\/9300605fp.gif",
      "onSale": true,
      "itemUpdateDate": "2009-07-28T22:49:15",
      "affiliateUrl": null,
      "activeUpdateDate": "2009-04-28T12:14:27",
      "width": "52\"",
      "spin360Url": null,
      "backViewImage": "http:\/\/images.bestbuy.com\/BestBuy_US\/images\/products\/9300\/9300605_ba.jpg",
      "onlineAvailability": false
    },
    {
      "shippingWeight": "75",
      "printOnly": false,
      "description": null,
      "url": "http:\/\/www.bestbuy.com\/site\/olspage.jsp?skuId=8996508&type=product&id=1218008113715&cmp=RMX&ky=1uYnAnk1pohGgQVwEClo8PHv4SN4C5MeL",
      "inStoreAvailability": true,
      "sku": 8996508,
      "cjAffiliateAddToCartUrl": null,
      "search": null,
      "addToCartUrl": "http:\/\/www.bestbuy.com\/site\/olspage.jsp?id=pcmcat152200050035&type=category&cmp=RMX&ky=1uYnAnk1pohGgQVwEClo8PHv4SN4C5MeL&qvsids=8996508",
      "affiliateAddToCartUrl": null,
      "new": false,
      "accessoriesImage": null,
      "weight": "84 lbs. with stand (73 lbs. without)",
      "salePrice": 3699.98,
      "dollarSavings": 0.0,
      "inStoreAvailabilityUpdateDate": "2008-10-16T01:32:05",
      "largeFrontImage": null,
      "freeShipping": true,
      "navigability": true,
      "height": "29\" with stand (27\" without)",
      "color": null,
      "remoteControlImage": null,
      "stores": [
        {
          "fullPostalCode": "76051",
          "city": "Grapevine",
          "longName": "Best Buy - Grapevine",
          "name": "Grapevine",
          "region": "TX",
          "country": "US",
          "lng": -97.095222,
          "postalCode": "76051",
          "phone": "817-442-9912",
          "hours": "Mon: 10-9; Tue: 10-9; Wed: 10-9; Thurs: 10-9; Fri: 10-10; Sat: 9-10; Sun: 11-8",
          "lat": 32.928673,
          "address": "1515 W State Hwy 114",
          "distance": 25.63,
          "storeId": 148
        }
      ],
      "largeImage": "http:\/\/images.bestbuy.com\/BestBuy_US\/images\/products\/8996\/8996508_rb.jpg",
      "format": null,
      "salesRankLongTerm": 2370,
      "inStoreAvailabilityText": "Store Pickup: Available at most stores",
      "regularPrice": 3699.98,
      "salesRankShortTerm": 270,
      "nationalFeatured": false,
      "manufacturer": "Sony",
      "onlineAvailabilityText": "Delivery Most Areas",
      "salesRankMediumTerm": 558,
      "department": "MAGNOLIA HOME THEATR",
      "energyGuideImage": null,
      "customerReviewCount": 5,
      "mobileUrl": "http:\/\/m.bestbuy.com\/r\/1218008113715\/8996508\/",
      "name": "Sony BRAVIA XBR \/ 46\" Class \/ 1080p \/ 120Hz \/ LCD HDTV",
      "image": "http:\/\/images.bestbuy.com\/BestBuy_US\/images\/products\/8996\/8996508_rc.jpg",
      "shippingCost": 0.0,
      "shortDescription": "ENERGY STAR Qualified4 HDMI inputs; PC input; black cabinet; 16:9 aspect ratio",
      "specialOrder": false,
      "customerReviewAverage": 5.0,
      "warrantyParts": "18 months",
      "depth": "12-3\/8\" with stand (5-4\/7\" without)",
      "topViewImage": null,
      "upc": "027242739062",
      "class": "MHT FLAT PANEL TV",
      "departmentId": 14,
      "rightViewImage": null,
      "active": true,
      "classId": 306,
      "subclass": "MHT 43\" - 55\" LCD",
      "cjAffiliateUrl": null,
      "priceUpdateDate": "2009-07-30T08:11:06",
      "alternateViewsImage": "http:\/\/images.bestbuy.com\/BestBuy_US\/images\/products\/8996\/8996508cv1a.jpg",
      "warrantyLabor": "18 months",
      "source": "bestbuy",
      "releaseDate": null,
      "modelNumber": "KDL-46XBR8",
      "longDescription": "Learn more\nabout Magnolia Premium\nInstallation &nbsp; \nThis 46\" flat-panel HDTV features a TRILUMINOS RGB dynamic LED backlight display to ensure dazzling color performance and true 1080p high-definition images.",
      "onlineAvailabilityUpdateDate": "2008-10-16T01:32:05",
      "startDate": "2008-10-14",
      "subclassId": 3987,
      "angleImage": "http:\/\/images.bestbuy.com\/BestBuy_US\/images\/products\/8996\/8996508_ra.jpg",
      "thumbnailImage": "http:\/\/images.bestbuy.com\/BestBuy_US\/images\/products\/8996\/8996508_r.gif",
      "leftViewImage": "http:\/\/images.bestbuy.com\/BestBuy_US\/images\/products\/8996\/8996508le.jpg",
      "type": "HardGood",
      "productId": 1218008113715,
      "orderable": "Available",
      "categoryPath": [
        {
          "name": "Best Buy",
          "id": "cat00000"
        },
        {
          "name": "TV & Video",
          "id": "abcat0100000"
        },
        {
          "name": "Televisions",
          "id": "abcat0101000"
        },
        {
          "name": "Flat-Panel TVs",
          "id": "abcat0101001"
        }
      ],
      "mediumImage": "http:\/\/images.bestbuy.com\/BestBuy_US\/images\/products\/8996\/8996508fp.gif",
      "onSale": false,
      "itemUpdateDate": "2009-07-30T08:11:06",
      "affiliateUrl": null,
      "activeUpdateDate": "2008-10-16T01:32:05",
      "width": "49 1\/2\"",
      "spin360Url": "http:\/\/images.bestbuy.com\/BestBuy_US\/en_US\/images\/global\/360\/360pop.html?sku=8996508",
      "backViewImage": "http:\/\/images.bestbuy.com\/BestBuy_US\/images\/products\/8996\/8996508_ba.jpg",
      "onlineAvailability": false
    }
  ],
  "total": 3,
  "to": 3,
  "canonicalUrl": "\/v1\/products(salePrice>3000)+stores(area(\"76227\",50))?format=json&apiKey=OU812",
  "totalTime": "0.075"
}