{
  "totalPages": 1,
  "currentPage": 1,
  "queryTime": "0.048",
  "from": 1,
  "total": 5,
  "to": 5,
  "stores": [
    {
      "fullPostalCode": "02115",
      "city": "Boston",
      "longName": "Best Buy - Back Bay",
      "name": "Back Bay",
      "region": "MA",
      "country": "US",
      "lng": -71.087975,
      "postalCode": "02115",
      "phone": "617-375-7412",
      "hours": "Mon: 10-9; Tue: 10-9; Wed: 10-9; Thurs: 10-9; Fri: 10-9; Sat: 10-9; Sun: 11-7",
      "lat": 42.347862,
      "address": "360 Newbury St",
      "storeId": 1471
    },
    {
      "fullPostalCode": "02125",
      "city": "Dorchester",
      "longName": "Best Buy - South Bay Center",
      "name": "South Bay Center",
      "region": "MA",
      "country": "US",
      "lng": -71.060478,
      "postalCode": "02125",
      "phone": "617-445-5361",
      "hours": "Mon: 10-9; Tue: 10-9; Wed: 10-9; Thurs: 10-9; Fri: 10-9; Sat: 10-9; Sun: 11-7",
      "lat": 42.327961,
      "address": "14 Allstate Rd",
      "storeId": 1126
    },
    {
      "fullPostalCode": "02141",
      "city": "Cambridge",
      "longName": "Best Buy - Cambridge ",
      "name": "Cambridge ",
      "region": "MA",
      "country": "US",
      "lng": -71.07775,
      "postalCode": "02141",
      "phone": "617-577-8866",
      "hours": "Mon: 10-9; Tue: 10-9; Wed: 10-9; Thurs: 10-9; Fri: 10-9; Sat: 10-9; Sun: 12-7",
      "lat": 42.36849,
      "address": "100 Cambridgeside Pl",
      "storeId": 537
    },
    {
      "fullPostalCode": "02149",
      "city": "Everett",
      "longName": "Best Buy - Everett",
      "name": "Everett",
      "region": "MA ",
      "country": "US",
      "lng": -71.06851,
      "postalCode": "02149",
      "phone": "617-394-5080",
      "hours": "Mon: 10-9; Tue: 10-9; Wed: 10-9; Thurs: 10-9; Fri: 10-9; Sat: 10-9; Sun: 11-7",
      "lat": 42.39917,
      "address": "162 Santilli Hwy",
      "storeId": 1088
    },
    {
      "fullPostalCode": "02184",
      "city": "Braintree",
      "longName": "Best Buy - Braintree",
      "name": "Braintree",
      "region": "MA",
      "country": "US",
      "lng": -70.999031,
      "postalCode": "02184",
      "phone": "781-848-1100",
      "hours": "Mon: 10-9; Tue: 10-9; Wed: 10-9; Thurs: 10-9; Fri: 10-9; Sat: 10-9; Sun: 11-7",
      "lat": 42.216267,
      "address": "550 Grossman Dr",
      "storeId": 530
    }
  ],
  "canonicalUrl": "\/v1\/stores(postalCode=\"021*\")?format=json&apiKey=OU812",
  "totalTime": "0.051"
}